{"type":"FeatureCollection","features":[{"type":"Feature","id":"node/4650852760","properties":{"type":"node","id":4650852760,"tags":{"amenity":"studio","contact:email":"radiogandaki.news@gmail.com","name":"Gandaki Television","source":"2C Pokhara Field Data Collection","studio":"television"},"relations":[],"meta":{"timestamp":"2017-03-02T05:39:54Z","version":2,"changeset":46513173,"user":"Alisha12","uid":4204463}},"geometry":{"type":"Point","coordinates":[83.9896354,28.216618]}},{"type":"Feature","id":"node/5257131733","properties":{"type":"node","id":5257131733,"tags":{"amenity":"studio","contact:phone":"061550483","name":"Golden Eye Television","studio":"television"},"relations":[],"meta":{"timestamp":"2017-12-01T06:17:36Z","version":1,"changeset":54225152,"user":"Ro Sun","uid":3112087}},"geometry":{"type":"Point","coordinates":[83.9874288,28.2234086]}},{"type":"Feature","id":"node/5544278182","properties":{"type":"node","id":5544278182,"tags":{"amenity":"studio","contact:phone":"061-524517, 061-524518, 061-524519, 061-524520","name":"Fewa Television","source":"2cpokhara","studio":"television"},"relations":[],"meta":{"timestamp":"2018-06-21T06:03:28Z","version":2,"changeset":60031146,"user":"Ro Sun","uid":3112087}},"geometry":{"type":"Point","coordinates":[83.9906892,28.2184408]}},{"type":"Feature","id":"node/5707199738","properties":{"type":"node","id":5707199738,"tags":{"amenity":"studio","name":"AP1 HD Television","phone":"061527614","studio":"television"},"relations":[],"meta":{"timestamp":"2018-06-21T05:10:46Z","version":1,"changeset":60029944,"user":"Ro Sun","uid":3112087}},"geometry":{"type":"Point","coordinates":[83.9856888,28.2135882]}},{"type":"Feature","id":"node/5707344136","properties":{"type":"node","id":5707344136,"tags":{"amenity":"studio","name":"Pokhara Television","phone":"061-528511","studio":"television"},"relations":[],"meta":{"timestamp":"2018-06-21T06:03:28Z","version":1,"changeset":60031146,"user":"Ro Sun","uid":3112087}},"geometry":{"type":"Point","coordinates":[83.9867764,28.2115364]}}],"createdOn":1532329581379}